[{"address":"20 Cardinal Hayes Place, New York, NY","latLong":{"lat":40.7133468,"lng":-74.0025814}},{"address":"20 Cardinal Hayes Place, New York, NY","latLong":{"lat":40.7133468,"lng":-74.0025814}},{"address":"29 Mott Street, New York, NY","latLong":{"lat":40.7148115,"lng":-73.99911709999999}},{"address":"49 Fulton Street, New York, NY","latLong":{"lat":40.7081354,"lng":-74.00394519999999}},{"address":"44 John Street, New York, NY","latLong":{"lat":40.7091344,"lng":-74.0081019}},{"address":"49 Fulton Street, New York, NY","latLong":{"lat":40.7081354,"lng":-74.00394519999999}},{"address":"20 Cardinal Hayes Place, New York, NY","latLong":{"lat":40.7133468,"lng":-74.0025814}},{"address":"22 Barclay Street, New York, NY","latLong":{"lat":40.7123651,"lng":-74.00956409999999}},{"address":"20 Cardinal Hayes Place, New York, NY","latLong":{"lat":40.7133468,"lng":-74.0025814}},{"address":"22 Barclay Street, New York, NY","latLong":{"lat":40.7123651,"lng":-74.00956409999999}},{"address":"283 West Broadway, New York, NY","latLong":{"lat":40.7208017,"lng":-74.0048389}},{"address":"125 Barclay Street, New York, NY","latLong":{"lat":40.7145883,"lng":-74.01295809999999}},{"address":"49 Fulton Street, New York, NY","latLong":{"lat":40.7081354,"lng":-74.00394519999999}},{"address":"49 Fulton Street, New York, NY","latLong":{"lat":40.7081354,"lng":-74.00394519999999}},{"address":"20 Cardinal Hayes Place, New York, NY","latLong":{"lat":40.7133468,"lng":-74.0025814}},{"address":"283 West Broadway, New York, NY","latLong":{"lat":40.7208017,"lng":-74.0048389}},{"address":"49 Fulton Street, New York, NY","latLong":{"lat":40.7081354,"lng":-74.00394519999999}},{"address":"22 Barclay Street, New York, NY","latLong":{"lat":40.7123651,"lng":-74.00956409999999}},{"address":"20 Cardinal Hayes Place, New York, NY","latLong":{"lat":40.7133468,"lng":-74.0025814}},{"address":"283 West Broadway, New York, NY","latLong":{"lat":40.7208017,"lng":-74.0048389}},{"address":"283 West Broadway, New York, NY","latLong":{"lat":40.7208017,"lng":-74.0048389}},{"address":"283 W. Broadway, New York, NY","latLong":{"lat":40.7208017,"lng":-74.0048389}}]