[{"name":"A DESIGN FOR LIVING","address":"20 Cardinal Hayes Place, New York, NY","day":"Tuesdays","start":700,"end":800,"type":"Beginners meeting","lat":40.7133468,"lng":-74.0025814},{"name":"CHAMBERS STREET","address":"20 Cardinal Hayes Place, New York, NY","day":"Fridays","start":2415,"end":1315,"type":"Big Book meeting","lat":40.7133468,"lng":-74.0025814},{"name":"CHINATOWN","address":"29 Mott Street, New York, NY","day":"Tuesdays","start":1830,"end":1930,"type":"Closed Discussion meeting","lat":40.7148115,"lng":-73.99911709999999},{"name":"DOWNTOWN","address":"49 Fulton Street, New York, NY","day":"Mondays","start":1900,"end":2000,"type":"Open Discussion meeting","lat":40.7081354,"lng":-74.00394519999999},{"name":"EXCHANGE VIEWS @ JOHN STREET CHURCH","address":"44 John Street, New York, NY","day":"Thursdays","start":1330,"end":1430,"type":"Step meeting","special":"Living Sober","lat":40.7091344,"lng":-74.0081019},{"name":"EXCHANGE VIEWS @ ST. MARGARET‘S HOUSE","address":"49 Fulton Street, New York, NY","day":"Fridays","start":1730,"end":1830,"type":"Beginners meeting","special":"Round-Robin Meeting Format","lat":40.7081354,"lng":-74.00394519999999},{"name":"FRIDAY DOWNTOWN","address":"20 Cardinal Hayes Place, New York, NY","day":"Fridays","start":1800,"end":1900,"type":"Open Discussion meeting","lat":40.7133468,"lng":-74.0025814},{"name":"GATEWAY","address":"22 Barclay Street, New York, NY","day":"Sundays","start":1800,"end":1900,"type":"Big Book meeting","lat":40.7123651,"lng":-74.00956409999999},{"name":"PASSING THE BAR","address":"20 Cardinal Hayes Place, New York, NY","day":"Fridays","start":1315,"end":1415,"type":"Big Book meeting","special":"Promises","lat":40.7133468,"lng":-74.0025814},{"name":"S.O.B.E.R.","address":"22 Barclay Street, New York, NY","day":"Thursdays","start":1930,"end":2045,"type":"Open Discussion meeting","lat":40.7123651,"lng":-74.00956409999999},{"name":"SANE AND SOBER","address":"283 West Broadway, New York, NY","day":"Wednesdays","start":1900,"end":2000,"type":"Closed Discussion meeting","special":"Mental Health Issues in Sobriety","lat":40.7208017,"lng":-74.0048389},{"name":"SATURDAY AFTERNOON DISCUSSION","address":"125 Barclay Street, New York, NY","day":"Saturdays","start":1400,"end":1515,"type":"Open Discussion meeting","lat":40.7145883,"lng":-74.01295809999999},{"name":"SEAMEN‘S GROUP","address":"49 Fulton Street, New York, NY","day":"Tuesdays","start":1800,"end":1900,"type":"Step meeting","lat":40.7081354,"lng":-74.00394519999999},{"name":"SEAPORT","address":"49 Fulton Street, New York, NY","day":"Tuesdays","start":2415,"end":1315,"type":"Beginners meeting","special":"Meditation","lat":40.7081354,"lng":-74.00394519999999},{"name":"TOWER","address":"20 Cardinal Hayes Place, New York, NY","day":"Wednesdays","start":1730,"end":1830,"type":"Open Discussion meeting","lat":40.7133468,"lng":-74.0025814},{"name":"TRIANGLE GROUP","address":"283 West Broadway, New York, NY","day":"Thursdays","start":1830,"end":1930,"type":"Closed Discussion meeting","special":"Meditation","lat":40.7208017,"lng":-74.0048389},{"name":"TRIBECA GROUP @ ST. MARGARET‘S HOUSE","address":"49 Fulton Street, New York, NY","day":"Thursdays","start":1930,"end":2030,"type":"Beginners meeting","lat":40.7081354,"lng":-74.00394519999999},{"name":"TRIBECA GROUP @ ST. PETER‘S CHURCH","address":"22 Barclay Street, New York, NY","day":"Wednesdays","start":2000,"end":2100,"type":"Open Discussion meeting","lat":40.7123651,"lng":-74.00956409999999},{"name":"WOMEN‘S DOWNTOWN AA STEP MEETING","address":"20 Cardinal Hayes Place, New York, NY","day":"Wednesdays","start":1315,"end":1415,"type":"Step meeting","lat":40.7133468,"lng":-74.0025814},{"name":"YOUNG PEOPLE‘S DIVERSITY","address":"283 West Broadway, New York, NY","day":"Wednesdays","start":2030,"end":2130,"type":"Closed Discussion meeting","special":"Gay, Lesbian and Bisexual","lat":40.7208017,"lng":-74.0048389},{"name":"YOUNG PEOPLE‘S STEP","address":"283 West Broadway, New York, NY","day":"Tuesdays","start":1945,"end":2045,"type":"Closed Discussion meeting","special":"Young People","lat":40.7208017,"lng":-74.0048389},{"name":"YOUTH ENJOYING SOBRIETY (Y.E.S.)","address":"283 West Broadway, New York, NY","day":"Saturdays","start":1900,"end":2015,"type":"Beginners meeting","special":"Young People","lat":40.7208017,"lng":-74.0048389},{"name":"A.A. ON THE BOWERY","address":"273 Bowery, New York, NY","day":"Fridays","start":1800,"end":1900,"type":"Closed Discussion meeting","lat":40.7237496,"lng":-73.992395},{"name":"AFTER FIVE","address":"232 West 11th Street, New York, NY","day":"Thursdays","start":1815,"end":1915,"type":"Step meeting","lat":40.7360929,"lng":-74.0027593},{"name":"AFTERNOON DELIGHT","address":"283 West Broadway, New York, NY","day":"Saturdays","start":2400,"end":1300,"type":"Closed Discussion meeting","lat":40.7208017,"lng":-74.0048389},{"name":"ARTISTS IN RECOVERY (A.R.T.)","address":"232 West 11th Street, New York, NY","day":"Sundays","start":1830,"end":1945,"type":"Beginners meeting","lat":40.7360929,"lng":-74.0027593},{"name":"BAGELS AND BIG BOOK","address":"220 West Houston Street, New York, NY","day":"Sundays","start":1030,"end":2400,"type":"Open Discussion meeting","lat":40.7287153,"lng":-74.004578},{"name":"CENTER MEETING","address":"253 Center Street, New York, NY","day":"Mondays","start":1715,"end":1815,"type":"Open Discussion meeting","special":"Meditation at Meeting","lat":40.57134970000001,"lng":-74.1437742},{"name":"EAST VILLAGE SOBER AGNOSTICS","address":"273 Bowery, New York, NY","day":"Fridays","start":1845,"end":2000,"type":"Open Discussion meeting","special":"Agnostic","lat":40.7237496,"lng":-73.992395},{"name":"GREENWICH VILLAGE","address":"487 Hudson Street, New York, NY","day":"Mondays","start":2030,"end":2130,"type":"Step meeting","special":"Steps 1-2-3","lat":40.73261979999999,"lng":-74.0068029},{"name":"GRUPO CENTRAL","address":"292 Henry Street, New York, NY","day":"Fridays","start":2000,"end":2100,"type":"Open meeting","lat":40.71371430000001,"lng":-73.983033},{"name":"HAPPY, JOYOUS AND FREE","address":"232 West 11th Street, New York, NY","day":"Meeting Type C = Closed Discussion meeting","start":0,"end":0,"lat":40.7360929,"lng":-74.0027593},{"name":"LOWER EAST SIDE","address":"141 Henry Street, New York, NY","day":"Tuesdays","start":1900,"end":2000,"type":"Closed Discussion meeting","lat":40.7134775,"lng":-73.9906663},{"name":"MIDNITE","address":"220 West Houston Street, New York, NY","day":"Thursdays","start":2200,"end":2315,"type":"Closed Discussion meeting","special":"Topic","lat":40.7287153,"lng":-74.004578},{"name":"NEW GROUP","address":"83 Christopher Street, New York, NY","day":"Fridays","start":1930,"end":2030,"type":"Beginners meeting","special":"Gay, Lesbian and Bisexual","lat":40.7336761,"lng":-74.0037703},{"name":"PERRY STREET WORKSHOP","address":"50 Perry Street, New York, NY","day":"Fridays","start":2300,"end":0,"type":"Closed Discussion meeting","special":"Children Welcome","lat":40.7355145,"lng":-74.0031001},{"name":"PRIMETIME NYC (I)","address":"232 West 11th Street, New York, NY","day":"Tuesdays","start":1830,"end":1945,"type":"Step meeting","lat":40.7360929,"lng":-74.0027593},{"name":"RED DOOR","address":"224 Waverly Place, New York, NY","day":"Fridays","start":2030,"end":2130,"type":"Open Discussion meeting","special":"Gay, Lesbian and Bisexual","lat":40.7360517,"lng":-74.0020724},{"name":"ROOM FOR IMPROVEMENT 1","address":"154 Sullivan Street, New York, NY","day":"Fridays","start":730,"end":830,"type":"Step meeting","special":"Promises","lat":40.7272453,"lng":-74.001408},{"name":"ROOM FOR IMPROVEMENT 1","address":"273 Bowery Street, New York, NY","day":"Saturdays","start":730,"end":830,"lat":40.7237496,"lng":-73.992395},{"name":"SHERIDAN SQUARE FOLLIES","address":"371 6th Avenue, New York, NY","day":"Saturdays","start":1800,"end":1900,"type":"Beginners meeting","special":"Gay, Lesbian and Bisexual","lat":40.732613,"lng":-74.00070509999999},{"name":"SOHO 1","address":"155 Sullivan Street, New York, NY","day":"Mondays","start":2030,"end":2130,"type":"Step meeting","special":"Interpreted for the Deaf","lat":40.727182,"lng":-74.001238},{"name":"SPIRITUAL WORKSHOP","address":"7 East 10th Strert, New York, NY","day":"Sundays","start":1100,"end":2415,"type":"Closed Discussion meeting","special":"Eleventh Step","lat":40.7332774,"lng":-73.99463109999999},{"name":"T&A","address":"232 West 11th Street, New York, NY","day":"Mondays","start":1830,"end":1930,"lat":40.7360929,"lng":-74.0027593},{"name":"TEN PLUS","address":"81 Christopher Street, New York, NY","day":"Tuesdays","start":2000,"end":2100,"type":"Closed Discussion meeting","lat":40.7336975,"lng":-74.0035917},{"name":"THE CAPTAIN‘S TABLE","address":"273 Bowery, New York, NY","day":"Thursdays","start":1900,"end":2000,"type":"Big Book meeting","special":"Men","lat":40.7237496,"lng":-73.992395},{"name":"TOGETHER WE CAN","address":"232 West 11th Street, New York, NY","day":"Tuesdays","start":1845,"end":2000,"type":"Step meeting","lat":40.7360929,"lng":-74.0027593},{"name":"WEDNESDAY FOCUS","address":"232 West 11th Street, New York, NY","day":"Wednesdays","start":1815,"end":1915,"type":"Closed Discussion meeting","lat":40.7360929,"lng":-74.0027593},{"name":"WEST VILLAGE WOMEN","address":"83 Christopher Street, New York, NY","day":"Thursdays","start":1830,"end":1945,"type":"Closed Discussion meeting","special":"Women","lat":40.7336761,"lng":-74.0037703},{"name":"WOMEN INTO ACTION","address":"220 West Houston Street, New York, NY","day":"Saturdays","start":1645,"end":1745,"type":"Closed Discussion meeting","special":"Women","lat":40.7287153,"lng":-74.004578},{"name":"WOMEN TOGETHER 1","address":"273 Bowery, New York, NY","day":"Fridays","start":1815,"end":1930,"type":"Closed Discussion meeting","special":"Lesbian","lat":40.7237496,"lng":-73.992395},{"name":"12 CONCEPTS WORKSHOP","address":"7 East 10th Street, New York, NY","day":"Wednesdays","start":2015,"end":2115,"type":"Closed Discussion meeting","lat":40.7332774,"lng":-73.99463109999999},{"name":"22 BELOW","address":"155 East 22nd Street, New York, NY","day":"Wednesdays","start":2415,"end":1315,"type":"Step meeting","special":"Living Sober","lat":40.7385571,"lng":-73.9840372},{"name":"AA AT THE THREE JEWELS","address":"61 Fourth Avenue, New York, NY","day":"Sundays","start":1900,"end":2030,"lat":40.7307918,"lng":-73.9903808},{"name":"AGNOSTICS AT NOON","address":"208 West 13th Street, New York, NY","day":"Thursdays","start":2400,"end":1300,"type":"Closed Discussion meeting","special":"Agnostic","lat":40.7380161,"lng":-74.0011104},{"name":"ALIVE AGAIN","address":"123 East 15th Street, New York, NY","day":"Saturdays","start":1300,"end":1400,"type":"Step meeting","lat":40.7346749,"lng":-73.9880046},{"name":"AT BILL‘S PLACE","address":"61 Gramercy Park North, New York, NY","day":"Wednesdays","start":1830,"end":1930,"type":"Closed Discussion meeting","lat":40.7389292,"lng":-73.98679840000001},{"name":"ATLANTIC BY THE BOOK","address":"155 East 22nd Street, New York, NY","day":"Wednesdays","start":1900,"end":2000,"type":"Big Book meeting","lat":40.7385571,"lng":-73.9840372},{"name":"ATLANTIC DOWNTOWN","address":"127 East 22nd Street, New York, NY","day":"Sundays","start":1900,"end":2000,"type":"Open meeting","lat":40.7390954,"lng":-73.985349},{"name":"AVENUE B CLEAN AND DRY","address":"602 East 9th Street, New York, NY","day":"Thursdays","start":1900,"end":2015,"type":"Closed Discussion meeting","lat":40.7260263,"lng":-73.9801554},{"name":"BIG BOOK MAGIC","address":"125 West 14th Street, New York, NY","day":"Thursdays","start":1945,"end":2045,"type":"Big Book meeting","special":"Big Book Topic","lat":40.7380198,"lng":-73.99775679999999},{"name":"CHELSEA MORNINGS","address":"346 West 20th Street, New York, NY","day":"Saturdays","start":800,"end":900,"type":"Open Discussion meeting","special":"Meditation","lat":40.7440891,"lng":-74.00198879999999},{"name":"CHELSEA NOONERS","address":"125 West 14th Street, New York, NY","day":"Thursdays","start":2400,"end":1300,"type":"Closed Discussion meeting","lat":40.7380198,"lng":-73.99775679999999},{"name":"COMPLETE ABANDON","address":"414 East 14th Street, New York, NY","day":"Wednesdays","start":2030,"end":2130,"type":"Step meeting","lat":40.7308098,"lng":-73.98242979999999},{"name":"COMPLETELY SOBER","address":"119 Ninth Avenue, New York, NY","day":"Mondays","start":1845,"end":2000,"type":"Open Discussion meeting","lat":40.7433244,"lng":-74.0041176},{"name":"CROSSROADS","address":"202 West 24 Street, New York, NY","day":"Sundays","start":1600,"end":1700,"type":"Open meeting","lat":40.7448224,"lng":-73.9958574},{"name":"EAST MEETS WEST IN SOBRIETY","address":"28 Gramercy Park South, New York, NY","day":"Wednesdays","start":1900,"end":2000,"type":"Closed Discussion meeting","lat":40.7370361,"lng":-73.9853871},{"name":"EAST VILLAGE GROUP","address":"50 East 7th Street, New York, NY","day":"Saturdays","start":2030,"end":2130,"type":"Closed Discussion meeting","lat":40.727553,"lng":-73.987661},{"name":"EXPERIENCE STRENGTH AND HOPE","address":"273 Bowery, New York, NY","day":"Wednesdays","start":1900,"end":2000,"type":"Closed Discussion meeting","lat":40.7237496,"lng":-73.992395},{"name":"GRACE ON BROADWAY","address":"802 Broadway, New York, NY","day":"Thursdays","start":815,"end":915,"type":"Closed Discussion meeting","lat":40.7319869,"lng":-73.9909306},{"name":"GRAMERCY","address":"28 Grammercy Park South, New York, NY","day":"Thursdays","start":1830,"end":1930,"type":"Step meeting","lat":40.7370361,"lng":-73.9853871},{"name":"GRATEFUL GROUP OF A.A.","address":"209 East 16th Street, New York, NY","day":"Mondays","start":1815,"end":1900,"type":"Step meeting","special":"Fourth Step Workshop","lat":40.7343774,"lng":-73.9849701},{"name":"GRUPO EL MILAGRO","address":"44 2nd Avenue, New York, NY","day":"Sundays","start":2000,"end":2100,"type":"Open meeting","lat":40.72498849999999,"lng":-73.98997729999999},{"name":"GRUPO GRATITUD","address":"229 West 14th Street, New York, NY","day":"Tuesdays","start":2000,"end":2100,"type":"Open meeting","lat":40.7393643,"lng":-74.00081270000001},{"name":"GRUPO SOBRIEDAD","address":"229 West 14th Street, New York, NY","day":"Tuesdays","start":1300,"end":1400,"type":"Closed Discussion meeting","lat":40.7393643,"lng":-74.00081270000001},{"name":"HIGH NOON","address":"208 West 13th Street, New York, NY","day":"Sundays","start":2400,"end":1300,"type":"Open meeting","special":"Interpreted for the Deaf","lat":40.7380161,"lng":-74.0011104},{"name":"JUST FOR TODAY","address":"28 Gramercy Park South, New York, NY","day":"Tuesdays","start":1900,"end":2000,"type":"Step meeting","lat":40.7370361,"lng":-73.9853871},{"name":"LAEX","address":"208 W 13th Street, New York, NY","day":"Saturdays","start":2000,"end":2100,"type":"Open meeting","lat":40.7380161,"lng":-74.0011104},{"name":"LEARNING TO LIVE 1","address":"307 West 26th St, New York, NY","day":"Fridays","start":2400,"end":1300,"type":"Open Discussion meeting","special":"Promises","lat":40.7476699,"lng":-73.9975237},{"name":"LEARNING TO LIVE 1","address":"343 West 25th Street, New York, NY","day":"Mondays","start":1900,"end":2000,"type":"Open meeting","lat":40.7474637,"lng":-73.9990832},{"name":"LIVING NOW","address":"80 St, New York, NY","day":"Tuesdays","start":1900,"end":2000,"type":"Step meeting","special":"Fourth Step Workshop","lat":40.7740246,"lng":-73.954563},{"name":"LIVING TODAY","address":"208 West 13th Street, New York, NY","day":"Sundays","start":2000,"end":2100,"type":"Open meeting","special":"Gay, Lesbian and Bisexual","lat":40.7380161,"lng":-74.0011104},{"name":"MADISON PARK BEGINNERS","address":"51 East 25th Street, New York, NY","day":"Thursdays","start":1730,"end":1830,"type":"Beginners meeting","lat":40.7419984,"lng":-73.9861092},{"name":"MANHATTAN","address":"155 East 22nd Street, New York, NY","day":"Fridays","start":1900,"end":2015,"type":"Step meeting","lat":40.7385571,"lng":-73.9840372},{"name":"N.Y.U. (NOW YOU UNDERSTAND)","address":"7 East 10th Street, New York, NY","day":"Thursdays","start":1400,"end":1500,"type":"Closed Discussion meeting","special":"Promises","lat":40.7332774,"lng":-73.99463109999999},{"name":"NEVER HAD A LEGAL DRINK","address":"315 West 22nd Street, New York, NY","day":"Thursdays","start":2000,"end":2100,"type":"Open Discussion meeting","special":"Young People","lat":40.745157,"lng":-73.99963},{"name":"NEW LIFE IN SOBRIETY","address":"15 Rutherford Place, New York, NY","day":"Fridays","start":2030,"end":2130,"type":"Closed Discussion meeting","lat":40.7338148,"lng":-73.98534490000002},{"name":"NINJAS IN RECOVERY","address":"25 East 15th, New York, NY","day":"Wednesdays","start":2000,"end":2100,"type":"Step meeting","lat":40.7361603,"lng":-73.9914763},{"name":"NINTH AVENUE 1","address":"175 9th Avenue, New York, NY","day":"Fridays","start":2030,"end":2130,"type":"Closed Discussion meeting","special":"H.I.V Positive","lat":40.7456308,"lng":-74.0037443},{"name":"OADW (ONCE A DRUNK WOMAN)","address":"19 Union Square West, New York, NY","day":"Tuesdays","start":2000,"end":2100,"type":"Closed Discussion meeting","special":"Women","lat":40.7361079,"lng":-73.991242},{"name":"P.A.X","address":"155 East 22nd Street, New York, NY","day":"Tuesdays","start":1845,"end":1945,"type":"Closed Discussion meeting","special":"Men","lat":40.7385571,"lng":-73.9840372},{"name":"POT LUCK","address":"423 East 23rd Street, New York, NY","day":"Saturdays","start":2100,"end":2200,"type":"Open Discussion meeting","lat":40.7370457,"lng":-73.9768398},{"name":"POTPOURRI","address":"209 East 16th Street, New York, NY","day":"Fridays","start":1800,"end":1900,"type":"Beginners meeting","lat":40.7343774,"lng":-73.9849701},{"name":"PRIMETIME NYC (II)","address":"411 East 12th Street, New York, NY","day":"Sundays","start":1330,"end":1430,"type":"Open Discussion meeting","lat":40.7298724,"lng":-73.9827759},{"name":"SATURDAY BEGINNERS","address":"209 East 16th Street, New York, NY","day":"Saturdays","start":1030,"end":1130,"type":"Big Book meeting","lat":40.7343774,"lng":-73.9849701},{"name":"SATURDAY WEEKENDERS","address":"239 East 21st Street, New York, NY","day":"Saturdays","start":1000,"end":1100,"type":"Closed Discussion meeting","lat":40.73695680000001,"lng":-73.9822937},{"name":"SAVE HER A SEAT","address":"12 West 12th Street, New York, NY","day":"Tuesdays","start":1915,"end":2030,"type":"Closed Discussion meeting","special":"Women","lat":40.734504,"lng":-73.995177},{"name":"SECOND AVENUE CLEAN AND DRY","address":"44 2nd Avenue, New York, NY","day":"Sundays","start":1700,"end":1800,"type":"Closed Discussion meeting","lat":40.72498849999999,"lng":-73.98997729999999},{"name":"SOBER MIRACLES","address":"208 West 13th Street, New York, NY","day":"Saturdays","start":2130,"end":2230,"type":"Open Discussion meeting","special":"Special Purpose Groups","lat":40.7380161,"lng":-74.0011104},{"name":"SOBRIETY ON THE SQUARE","address":"12 West 11th Street, New York, NY","day":"Saturdays","start":730,"end":830,"type":"Step meeting","lat":40.7341126,"lng":-73.9957561},{"name":"SPEAKER MAGIC","address":"116 West 11th Street, New York, NY","day":"Fridays","start":1900,"end":2000,"type":"Open meeting","lat":40.7355263,"lng":-73.9991134},{"name":"STRAIGHT 12 1","address":"80 5th Avenue, New York, NY","day":"Saturdays","start":1815,"end":1915,"type":"Closed Discussion meeting","lat":40.73587260000001,"lng":-73.9939717},{"name":"SUNDAY AT SIX","address":"116 West 11th Street, New York, NY","day":"Sundays","start":1800,"end":1900,"type":"Big Book meeting","lat":40.7355263,"lng":-73.9991134},{"name":"SUNDAY MORNING MEDITATION","address":"155 East 22nd Street, New York, NY","day":"Sundays","start":900,"end":1000,"type":"Closed Discussion meeting","special":"Meditation","lat":40.7385571,"lng":-73.9840372},{"name":"SUNDAY NOONERS","address":"319 Eastr 24th Street, New York, NY","day":"Sundays","start":2430,"end":1330,"type":"Open Discussion meeting","lat":40.738438,"lng":-73.980164},{"name":"SURVIVORS IN SOBRIETY","address":"10 East Union Square, New York, NY","day":"Tuesdays","start":1900,"end":2000,"type":"Open Discussion meeting","special":"Special Purpose Groups","lat":40.7347942,"lng":-73.98953209999999},{"name":"SVOBODA","address":"206-208 East 11th Street, New York, NY","day":"Tuesdays","start":2100,"end":2200,"type":"Open Discussion meeting","special":"As Bill Sees It","lat":40.7308882,"lng":-73.9881049},{"name":"T.G.I.F. & S.","address":"123 East 15th Street, New York, NY","day":"Fridays","start":2045,"end":2145,"type":"Step meeting","lat":40.7346749,"lng":-73.9880046},{"name":"THE 12TH STREET WORKSHOP","address":"411 East 12th Street, New York, NY","day":"Fridays","start":2030,"end":2130,"type":"Beginners meeting","special":"First Step Workshop","lat":40.7298724,"lng":-73.9827759},{"name":"THE FELLOWSHIP CLUB","address":"125 West 14th Street, New York, NY","day":"Fridays","start":1900,"end":2000,"type":"Beginners meeting","lat":40.7380198,"lng":-73.99775679999999},{"name":"TRANSGENDER FOCUS","address":"208 West 13th Street, New York, NY","day":"Sundays","start":1600,"end":1700,"type":"Closed Discussion meeting","lat":40.7380161,"lng":-74.0011104},{"name":"TWELVE AT SIX","address":"10 Union Square East, New York, NY","day":"Fridays","start":1800,"end":1900,"type":"Step meeting","lat":40.7347942,"lng":-73.98953209999999},{"name":"UPON AWAKENING","address":"155 West 22nd Street, New York, NY","day":"Sundays","start":2445,"end":1345,"type":"Step meeting","special":"Eleventh Step","lat":40.7431787,"lng":-73.9952776},{"name":"VILLAGE AGNOSTICS","address":"208 West 13th Street, New York, NY","day":"Sundays","start":1730,"end":1830,"type":"Step meeting","special":"Agnostic","lat":40.7380161,"lng":-74.0011104},{"name":"VILLAGE OPEN DISCUSSION  (V.O.D.)","address":"12 West 12th Street, New York, NY","day":"Tuesdays","start":1830,"end":1930,"type":"Open Discussion meeting","lat":40.734504,"lng":-73.995177},{"name":"VILLAGE SOBER","address":"20 Washington Square North, New York, NY","day":"Thursdays","start":1530,"end":1630,"type":"Closed Discussion meeting","lat":40.7319414,"lng":-73.9976956},{"name":"WEEKENDERS","address":"344 East 14th Street, New York, NY","day":"Sundays","start":1000,"end":1100,"type":"Step meeting","lat":40.7312884,"lng":-73.9832952},{"name":"WEST 22ND STREET SOBRIETY","address":"155 West 22nd Street, New York, NY","day":"Tuesdays","start":1800,"end":1900,"type":"Closed Discussion meeting","lat":40.7431787,"lng":-73.9952776},{"name":"WESTWINGERS","address":"208 West 13th Street, New York, NY","day":"Thursdays","start":2100,"end":2200,"type":"Open Discussion meeting","special":"Gay, Lesbian and Bisexual","lat":40.7380161,"lng":-74.0011104},{"name":"WHOLESALE MIRACLES","address":"602 East 9th Street, New York, NY","day":"Tuesdays","start":1930,"end":2030,"type":"Big Book meeting","lat":40.7260263,"lng":-73.9801554},{"name":"WOMEN NOW","address":"208 West 13th Street, New York, NY","day":"Tuesdays","start":1800,"end":1900,"type":"Closed Discussion meeting","lat":40.7380161,"lng":-74.0011104},{"name":"WOMEN TOGETHER 1","address":"208 West 13th Street, New York, NY","day":"Saturdays","start":1800,"end":1900,"type":"Closed Discussion meeting","special":"Lesbian","lat":40.7380161,"lng":-74.0011104},{"name":"WOMEN‘S SATURDAY ELEVENTH STEP MEDITATION","address":"19 Union Square West, New York, NY","day":"Saturdays","start":1100,"end":2400,"type":"Closed Discussion meeting","lat":40.7361079,"lng":-73.991242},{"name":"WORKS IN PROGRESS","address":"173 East 3rd Street, New York, NY","day":"Mondays","start":1900,"end":2000,"type":"Open Discussion meeting","special":"AA Literature","lat":40.7234082,"lng":-73.98430259999999},{"name":"YOUNG AND WISE","address":"50 East 7th Street, New York, NY","day":"Fridays","start":2000,"end":2130,"type":"Closed Discussion meeting","special":"Young People","lat":40.727553,"lng":-73.987661},{"name":"4 THE GRACE","address":"252 West 46th Street, New York, NY","day":"Saturdays","start":1600,"end":1700,"type":"Big Book meeting","special":"Living Sober","lat":40.7593263,"lng":-73.98727389999999},{"name":"42ND AT 9:00PM","address":"303 West 42nd Street, New York, NY","day":"Tuesdays","start":2115,"end":2230,"type":"Step meeting","special":"Meditation","lat":40.7576553,"lng":-73.9899274},{"name":"A NEW FREEDOM","address":"303 West 42nd Street, New York, NY","day":"Tuesdays","start":800,"end":900,"type":"Big Book meeting","special":"Living Sober","lat":40.7576553,"lng":-73.9899274},{"name":"ABINGDON SQUARE IN CHELSEA","address":"305 7th Avenue, New York, NY","day":"Wednesdays","start":2000,"end":2100,"type":"Open Discussion meeting","lat":40.7466478,"lng":-73.99335599999999},{"name":"ADVENTURES IN SOBRIETY","address":"1 West 53rd Street, New York, NY","day":"Fridays","start":1900,"end":2000,"type":"Open meeting","special":"Gay, Lesbian and Bisexual","lat":40.76083209999999,"lng":-73.9763834},{"name":"ALANON HOUSE   (AA MEETINGS ONLY)","address":"303 West 42nd Street, New York, NY","day":"Wednesdays","start":2000,"end":2100,"type":"Closed Discussion meeting","special":"Women","lat":40.7576553,"lng":-73.9899274},{"name":"AMAZING GRACE","address":"133 West 46th Street, New York, NY","day":"Fridays","start":730,"end":830,"type":"Closed Discussion meeting","lat":40.7579998,"lng":-73.98361530000001},{"name":"ANNEX 1","address":"441 West 26th Street, New York, NY","day":"Saturdays","start":1500,"end":1600,"type":"Open Discussion meeting","lat":40.749552,"lng":-74.0022443},{"name":"ANNEX 1","address":"446 West 33rd Street, New York, NY","day":"Tuesdays","start":2000,"end":2100,"type":"Open meeting","special":"Gay, Lesbian and Bisexual","lat":40.7535422,"lng":-73.9987837},{"name":"ARTISTS IN RECOVERY","address":"252 West 46th Street, New York, NY","day":"Tuesdays","start":2115,"end":2215,"type":"Closed Discussion meeting","special":"Special Purpose Groups","lat":40.7593263,"lng":-73.98727389999999},{"name":"BEGINNERS","address":"252 West 46th Street, New York, NY","day":"Saturdays","start":1330,"end":1430,"type":"Beginners meeting","special":"Living Sober","lat":40.7593263,"lng":-73.98727389999999},{"name":"BEGINNERS","address":"252 West 46th Street, New York, NY","day":"Saturdays","start":1445,"end":1545,"type":"Beginners meeting","lat":40.7593263,"lng":-73.98727389999999},{"name":"BETWEEN SHOWS","address":"339 West 47th Street, New York, NY","day":"Wednesdays","start":1700,"end":1800,"type":"Closed Discussion meeting","lat":40.7613138,"lng":-73.9890389},{"name":"BLUEPRINT FOR LIVING","address":"303 West 42nd St Rm 306, New York, NY","day":"Mondays","start":1630,"end":1730,"lat":40.7576553,"lng":-73.9899274},{"name":"BOOKSHOP AT NOON","address":"139 West 31st Street, New York, NY","day":"Fridays","start":2400,"end":1300,"type":"Closed Discussion meeting","lat":40.7487872,"lng":-73.9907198},{"name":"CLEAN AND DRY","address":"422 West 57th Street, New York, NY","day":"Sundays","start":1800,"end":1900,"type":"Open Discussion meeting","lat":40.7681523,"lng":-73.986936},{"name":"COMMUTERS SPECIAL","address":"211 West 30th Street, New York, NY","day":"Mondays","start":1800,"end":1900,"type":"Step meeting","lat":40.7487709,"lng":-73.9931364},{"name":"D.I.V.A.  (DIVINELY INSPIRED VIVACIOUS ALCOHOLICS)","address":"252 West 46th Street, New York, NY","day":"Saturdays","start":2400,"end":1300,"type":"Closed Discussion meeting","special":"Women","lat":40.7593263,"lng":-73.98727389999999},{"name":"FIFTH AVENUE STEP","address":"1 West 53rd Street, New York, NY","day":"Saturdays","start":1000,"end":1100,"type":"Step meeting","lat":40.76083209999999,"lng":-73.9763834},{"name":"FIRESIDE 1","address":"422 West 57th Street, New York, NY","day":"Tuesdays","start":2430,"end":1330,"type":"Open Discussion meeting","lat":40.7681523,"lng":-73.986936},{"name":"FOGLIFTERS","address":"7 West 55th Street, New York, NY","day":"Tuesdays","start":2430,"end":1330,"type":"Open Discussion meeting","lat":40.76208099999999,"lng":-73.9752496},{"name":"FORTY","address":"252 West 46th Street, New York, NY","day":"Fridays","start":2230,"end":2330,"type":"Closed Discussion meeting","lat":40.7593263,"lng":-73.98727389999999},{"name":"GREEN ROOM","address":"729 7th Avenue, New York, NY","day":"Thursdays","start":1730,"end":1830,"type":"Closed Discussion meeting","special":"Special Purpose Groups","lat":40.76014259999999,"lng":-73.9835384},{"name":"GRUPO BUENA VOLUNTAD","address":"538 West 47th Street, New York, NY","day":"Fridays","start":2000,"end":2100,"type":"Spanish speaking group","lat":40.7633341,"lng":-73.9948934},{"name":"HELL‘S KITCHEN","address":"1000 Tenth Avenue, New York, NY","day":"Thursdays","start":1930,"end":2030,"type":"Closed Discussion meeting","lat":40.7697168,"lng":-73.9868805},{"name":"HENRY HUDSON","address":"303 West 42nd Street, New York, NY","day":"Tuesdays","start":1930,"end":2030,"type":"Big Book meeting","lat":40.7576553,"lng":-73.9899274},{"name":"JOE AND CHARLIE CD MEETING","address":"252 West 46th Street, New York, NY","day":"Mondays","start":2115,"end":2215,"type":"Beginners meeting","lat":40.7593263,"lng":-73.98727389999999},{"name":"LEARNING TO LIVE 1","address":"307 West 26th Street, New York, NY","day":"Tuesdays","start":2400,"end":1300,"type":"Big Book meeting","special":"Promises","lat":40.7476699,"lng":-73.9975237},{"name":"LUCKY ONES","address":"405 West 59th Street, New York, NY","day":"Wednesdays","start":1300,"end":1400,"type":"Big Book meeting","lat":40.7698331,"lng":-73.9850824},{"name":"MIDNIGHT IN MIDTOWN","address":"303 West 42nd Street, New York, NY","day":"Saturdays","start":0,"end":100,"type":"Open meeting","special":"Eleventh Step","lat":40.7576553,"lng":-73.9899274},{"name":"MIRACLE","address":"422 West 57th St, New York, NY","day":"Mondays","start":1900,"end":2000,"type":"Beginners meeting","lat":40.7681523,"lng":-73.986936},{"name":"MORNING CALL","address":"133 West 46th Street, New York, NY","day":"Tuesdays","start":600,"end":700,"type":"Step meeting","lat":40.7579998,"lng":-73.98361530000001},{"name":"NEW BUT WEST","address":"133 West 46th Street, New York, NY","day":"Fridays","start":1730,"end":1830,"type":"Open Discussion meeting","special":"Women","lat":40.7579998,"lng":-73.98361530000001},{"name":"NEW PHOENIX","address":"303 West 42nd Street, New York, NY","day":"Saturdays","start":1030,"end":1130,"type":"Closed Discussion meeting","lat":40.7576553,"lng":-73.9899274},{"name":"NINTH AVENUE 1","address":"296 9th Avenue, New York, NY","day":"Mondays","start":2100,"end":2200,"type":"Open meeting","special":"First Step Workshop","lat":40.7492284,"lng":-73.9987409},{"name":"NU GARDEN","address":"139 West 31st Street, New York, NY","day":"Saturdays","start":1800,"end":1930,"type":"Open Discussion meeting","lat":40.7487872,"lng":-73.9907198},{"name":"PARK BENCH 1","address":"1 West 53rd Street, New York, NY","day":"Tuesdays","start":2430,"end":1330,"type":"Open Discussion meeting","lat":40.76083209999999,"lng":-73.9763834},{"name":"POWERLESS","address":"484 West 43rd Street, New York, NY","day":"Fridays","start":1900,"end":2000,"type":"Closed Discussion meeting","special":"Living Sober","lat":40.759952,"lng":-73.9947467},{"name":"PROMISES","address":"7 West 55th Street, New York, NY","day":"Fridays","start":2430,"end":1330,"type":"Open Discussion meeting","lat":40.76208099999999,"lng":-73.9752496},{"name":"PROMISES","address":"252 West 46th Street, New York, NY","day":"Thursdays","start":2115,"end":2215,"type":"Step meeting","lat":40.7593263,"lng":-73.98727389999999},{"name":"RAINBOW ROOM","address":"252 West 46th Street, New York, NY","day":"Wednesdays","start":2000,"end":2100,"type":"Closed Discussion meeting","special":"Gay, Lesbian and Bisexual","lat":40.7593263,"lng":-73.98727389999999},{"name":"RENAISSANCE","address":"4 West 43rd Street, New York, NY","day":"Fridays","start":2430,"end":1330,"type":"Closed Discussion meeting","lat":40.7542709,"lng":-73.9812596},{"name":"SATURDAY ROTATING 12 STEP","address":"252 West 46th Street, New York, NY","day":"Saturdays","start":2115,"end":2215,"type":"Step meeting","lat":40.7593263,"lng":-73.98727389999999},{"name":"SPIRITUAL FRIDAYS","address":"296 Ninth Avenue, New York, NY","day":"Fridays","start":1830,"end":1930,"type":"Open Discussion meeting","special":"Spiritual Workshop","lat":40.7492284,"lng":-73.9987409},{"name":"ST. THOMAS A.M.","address":"1 West 53rd Street, New York, NY","day":"Tuesdays","start":745,"end":845,"type":"Closed Discussion meeting","lat":40.76083209999999,"lng":-73.9763834},{"name":"STATLER AT NOON","address":"210 West 31st Street, New York, NY","day":"Thursdays","start":2400,"end":1300,"type":"Closed Discussion meeting","lat":40.7490715,"lng":-73.9928103},{"name":"STEPS AND TRADITIONS ON WEDNESDAY","address":"422 West 57th Street, New York, NY","day":"Wednesdays","start":1900,"end":2015,"type":"Step meeting","lat":40.7681523,"lng":-73.986936},{"name":"SUNDAY NIGHT BEGINNERS","address":"252 West 46th Street, New York, NY","day":"Sundays","start":2115,"end":2215,"type":"Beginners meeting","lat":40.7593263,"lng":-73.98727389999999},{"name":"TUESDAY SOBER AGNOSTICS","address":"134 West 29th Street, New York, NY","day":"Tuesdays","start":1800,"end":1900,"type":"Open Discussion meeting","special":"Agnostic","lat":40.7471514,"lng":-73.9917766},{"name":"WEST 58TH STREET STEP","address":"1000 Tenth Avenue, New York, NY","day":"Fridays","start":1930,"end":2030,"type":"Step meeting","lat":40.7697168,"lng":-73.9868805},{"name":"WOMEN OVER FORTY","address":"446 West 33rd Street, New York, NY","day":"Fridays","start":1830,"end":1945,"type":"Closed Discussion meeting","special":"Women","lat":40.7535422,"lng":-73.9987837},{"name":"YOUNG IN 164","address":"423 West 46th Street, New York, NY","day":"Sundays","start":1930,"end":2030,"type":"Big Book meeting","lat":40.7615675,"lng":-73.9915851},{"name":"YOUNG PEOPLE‘S MEETING","address":"252 West 46th Street, New York, NY","day":"Fridays","start":2115,"end":2215,"type":"Big Book meeting","special":"Young People","lat":40.7593263,"lng":-73.98727389999999},{"name":"AA LITERATURE","address":"122 East 37th Street, New York, NY","day":"Sundays","start":1815,"end":1915,"type":"Closed Discussion meeting","lat":40.748323,"lng":-73.97884499999999},{"name":"BREAKFAST CLUB","address":"30 East 35th Street, New York, NY","day":"Mondays","start":730,"end":830,"type":"Open Discussion meeting","lat":40.7479205,"lng":-73.9817652},{"name":"CARLYLE","address":"350 East 56th Street, New York, NY","day":"Wednesdays","start":1745,"end":1845,"type":"Beginners meeting","lat":40.7576496,"lng":-73.964016},{"name":"CITY GROUP","address":"619 Lexington Avenue, New York, NY","day":"Tuesdays","start":2430,"end":1330,"type":"Step meeting","lat":40.75856539999999,"lng":-73.9703834},{"name":"COURAGE TO CHANGE","address":"122 East 37th Street, New York, NY","day":"Fridays","start":1930,"end":2030,"type":"Open Discussion meeting","special":"Promises","lat":40.748323,"lng":-73.97884499999999},{"name":"EMPIRE STATE","address":"28 East 35th Street, New York, NY","day":"Fridays","start":2415,"end":1315,"type":"Beginners meeting","lat":40.7479666,"lng":-73.9818762},{"name":"GOTHAM","address":"350 East 56th Street, New York, NY","day":"Tuesdays","start":1745,"end":1845,"type":"Open Discussion meeting","lat":40.7576496,"lng":-73.964016},{"name":"GRAND CENTRAL","address":"283 Lexington Avenue, New York, NY","day":"Thursdays","start":1730,"end":1830,"type":"Open Discussion meeting","special":"First Step Workshop","lat":40.7479436,"lng":-73.9782379},{"name":"GRUPO BRASIL","address":"122 East 37th Street, New York, NY","day":"Fridays","start":2000,"end":2100,"type":"Open Discussion meeting","lat":40.748323,"lng":-73.97884499999999},{"name":"LIFE LINE","address":"619 Lexington Avenue, New York, NY","day":"Fridays","start":1730,"end":1830,"type":"Open Discussion meeting","lat":40.75856539999999,"lng":-73.9703834},{"name":"LUNCH BUNCH","address":"141 East 43rd Street, New York, NY","day":"Fridays","start":2430,"end":1330,"type":"Beginners meeting","lat":40.7517648,"lng":-73.9746571},{"name":"LUNCHTIME EXPRESS AT THE MUSTARD SEED","address":"122 E 37TH St, New York, NY","day":"Wednesdays","start":2430,"end":1315,"type":"Open meeting","lat":40.748323,"lng":-73.97884499999999},{"name":"MEDITATION SATURDAY NIGHT","address":"122 East 37th Street, New York, NY","day":"Saturdays","start":1930,"end":2030,"lat":40.748323,"lng":-73.97884499999999},{"name":"MONDAY MEN","address":"141 East 43rd Street, New York, NY","day":"Mondays","start":1915,"end":2015,"type":"Closed Discussion meeting","lat":40.7517648,"lng":-73.9746571},{"name":"MURRAY HILL","address":"209 Madison Avenue, New York, NY","day":"Mondays","start":1815,"end":1915,"type":"Beginners meeting","lat":40.7486231,"lng":-73.9820249},{"name":"MUSTARD SEED","address":"122 East 37th Street, New York, NY","day":"Fridays","start":2200,"end":2300,"type":"Open Discussion meeting","special":"Women","lat":40.748323,"lng":-73.97884499999999},{"name":"REBELLION DOGS","address":"619 Lexington Avenue, New York, NY","day":"Tuesdays","start":730,"end":830,"type":"Closed Discussion meeting","special":"Living Sober","lat":40.75856539999999,"lng":-73.9703834},{"name":"SATURDAY EAST","address":"240 East 31st Street, New York, NY","day":"Saturdays","start":1600,"end":1700,"type":"Closed Discussion meeting","lat":40.74308630000001,"lng":-73.9781856},{"name":"SATURDAY STEP","address":"114 East 35th Street, New York, NY","day":"Saturdays","start":1000,"end":1100,"type":"Step meeting","lat":40.7471876,"lng":-73.9801095},{"name":"SERENITY EAST","address":"230 East 60th Street, New York, NY","day":"Fridays","start":2000,"end":2100,"type":"Beginners meeting","lat":40.7614473,"lng":-73.9650253},{"name":"SERENITY EAST 1","address":"244 East 58th Street, New York, NY","day":"Tuesdays","start":1730,"end":1830,"type":"Big Book meeting","lat":40.7600109,"lng":-73.96544},{"name":"SILKWORTH WOMEN‘S","address":"619 Lexington Avenue, New York, NY","day":"Thursdays","start":2430,"end":1330,"type":"Closed Discussion meeting","special":"Women","lat":40.75856539999999,"lng":-73.9703834},{"name":"ST. BART‘S TWELVE","address":"325 Park Avenue, New York, NY","day":"Wednesdays","start":2430,"end":1330,"type":"Step meeting","lat":40.7572248,"lng":-73.9730479},{"name":"STRAIGHT 12","address":"236 EAST 31st STREET, New York, NY","day":"Saturdays","start":2030,"end":2130,"type":"Open Discussion meeting","special":"Promises","lat":40.7430458,"lng":-73.978217},{"name":"TEMPLETON","address":"308 East 55th Street, New York, NY","day":"Wednesdays","start":1815,"end":1915,"type":"Open Discussion meeting","lat":40.7576231,"lng":-73.9657988},{"name":"TRAFALGAR","address":"244 East 58th Street, New York, NY","day":"Tuesdays","start":1845,"end":1945,"type":"Open Discussion meeting","lat":40.7600109,"lng":-73.96544},{"name":"TUDOR","address":"244 East 58th Street, New York, NY","day":"Thursdays","start":1815,"end":1915,"type":"Open Discussion meeting","lat":40.7600109,"lng":-73.96544},{"name":"WOMEN‘S ELEVENTH STEP","address":"109 East 50th Street, New York, NY","day":"Wednesdays","start":1745,"end":1915,"type":"Step meeting","lat":40.7569979,"lng":-73.9734971},{"name":"A NEW DAY","address":"207 West 96th Street, New York, NY","day":"Wednesdays","start":1500,"end":1600,"type":"Closed Discussion meeting","special":"Living Sober","lat":40.7944661,"lng":-73.9706389},{"name":"A VISION FOR YOU","address":"120 West 69th Street, New York, NY","day":"Fridays","start":2100,"end":2200,"type":"Big Book meeting","lat":40.77565269999999,"lng":-73.98131769999999},{"name":"AFTER EIGHT 1","address":"422 West 57th Street, New York, NY","day":"Tuesdays","start":1830,"end":1945,"type":"Closed Discussion meeting","lat":40.7681523,"lng":-73.986936},{"name":"AFTER EIGHT 1","address":"164 West 74th Street, New York, NY","day":"Thursdays","start":1830,"end":1930,"type":"Closed Discussion meeting","special":"AA Literature","lat":40.7795103,"lng":-73.98025559999999},{"name":"ALTERED ATTITUDES","address":"207 West 96th Street, New York, NY","day":"Fridays","start":2130,"end":2230,"type":"Open Discussion meeting","lat":40.7944661,"lng":-73.9706389},{"name":"AMSTERDAM","address":"144 West 90th Street, New York, NY","day":"Fridays","start":1600,"end":1730,"type":"Step meeting","special":"Living Sober","lat":40.7897647,"lng":-73.9724231},{"name":"ANSONIA","address":"141 West 73rd Street, New York, NY","day":"Mondays","start":1900,"end":2000,"type":"Closed Discussion meeting","lat":40.7789434,"lng":-73.9797758},{"name":"ATLANTIC WEST STEP & TRADITION","address":"4 West 76th Street, New York, NY","day":"Fridays","start":1900,"end":2000,"type":"Step meeting","lat":40.7788723,"lng":-73.97479299999999},{"name":"BLOOMINGDALE","address":"221 West 107th Street, New York, NY","day":"Tuesdays","start":1930,"end":2030,"type":"Beginners meeting","lat":40.8018547,"lng":-73.9663156},{"name":"BROADWAY AT 96TH","address":"207 West 96th Street, New York, NY","day":"Fridays","start":1930,"end":2030,"type":"Open meeting","lat":40.7944661,"lng":-73.9706389},{"name":"CADILLACS FOR EVERYONE","address":"215 West 82nd Street, New York, NY","day":"Thursdays","start":1900,"end":2000,"type":"Open Discussion meeting","special":"Men","lat":40.7855083,"lng":-73.9778286},{"name":"CAMPUS CHEER","address":"601 West 114th Street, New York, NY","day":"Thursdays","start":2430,"end":1330,"type":"Closed Discussion meeting","lat":40.8070418,"lng":-73.9651341},{"name":"CENTRAL PARK WEST","address":"Central Park West, New York, NY","day":"Tuesdays","start":2015,"end":2130,"type":"Closed Discussion meeting","lat":40.7848582,"lng":-73.9696519},{"name":"CHELSEA RIVERSIDE","address":"5 West 63rd Street, New York, NY","day":"Mondays","start":2215,"end":2315,"type":"Closed Discussion meeting","special":"Topic","lat":40.7709272,"lng":-73.98057589999999},{"name":"CHOCK FULL OF SOBRIETY","address":"4 West 76th Street, New York, NY","day":"Fridays","start":1830,"end":1930,"type":"Closed Discussion meeting","lat":40.7788723,"lng":-73.97479299999999},{"name":"CLASSEN HALL 1","address":"160 Central Park West, New York, NY","day":"Sundays","start":1800,"end":1900,"type":"Beginners meeting","lat":40.7787393,"lng":-73.97455099999999},{"name":"CLASSEN HALL STEP MEETING 1","address":"152 West 66th Street, New York, NY","day":"Sundays","start":1815,"end":1945,"type":"Step meeting","special":"Twelve Steps","lat":40.77432290000001,"lng":-73.9839099},{"name":"COLUMBUS AT FIVE","address":"3 West 95th Street, New York, NY","day":"Fridays","start":1900,"end":2000,"type":"Closed Discussion meeting","special":"Topic","lat":40.7912092,"lng":-73.9653891},{"name":"EIGHTIETH STREET BEGINNERS","address":"251 West 80th Street, New York, NY","day":"Fridays","start":1930,"end":2045,"type":"Closed Discussion meeting","lat":40.78499559999999,"lng":-73.9800077},{"name":"FAST BREAK","address":"111 West 71st Street, New York, NY","day":"Thursdays","start":815,"end":915,"type":"Closed Discussion meeting","lat":40.777061,"lng":-73.97954659999999},{"name":"FAST BREAK WEEKEND","address":"5 West 63rd Street, New York, NY","day":"Saturdays","start":800,"end":900,"type":"Closed Discussion meeting","lat":40.7709272,"lng":-73.98057589999999},{"name":"FIRESIDE 1","address":"5 West 63rd Street, New York, NY","day":"Saturdays","start":2430,"end":1330,"type":"Step meeting","special":"First Step Workshop","lat":40.7709272,"lng":-73.98057589999999},{"name":"FIRST THINGS FIRST","address":"207 West 96th Street, New York, NY","day":"Sundays","start":1015,"end":1115,"type":"Tradition meeting","special":"Promises","lat":40.7944661,"lng":-73.9706389},{"name":"FRIDAY NIGHT STEP","address":"26 West 84th Street, New York, NY","day":"Fridays","start":1830,"end":1945,"type":"Step meeting","lat":40.7843147,"lng":-73.97173169999999},{"name":"GRUPO CAMINO REAL","address":"200 West 97th Street, New York, NY","day":"Thursdays","start":1900,"end":2000,"type":"Closed Discussion meeting","lat":40.7947291,"lng":-73.96989239999999},{"name":"GRUPO DULCES 24","address":"218 West 108th Street, New York, NY","day":"Sundays","start":1930,"end":2030,"type":"Open meeting","lat":40.8020319,"lng":-73.9659862},{"name":"GRUPO LUZ DIVINA","address":"125 West 104th Street, New York, NY","day":"Tuesdays","start":1930,"end":2030,"type":"Open meeting","lat":40.798687,"lng":-73.9649288},{"name":"HARGRAVE","address":"141 West 73rd Street, New York, NY","day":"Thursdays","start":2015,"end":2115,"type":"Closed Discussion meeting","lat":40.7789434,"lng":-73.9797758},{"name":"LAMBDA WEST","address":"236 West 73rd Street, New York, NY","day":"Wednesdays","start":2030,"end":2130,"type":"Closed Discussion meeting","special":"Gay, Lesbian and Bisexual","lat":40.7795884,"lng":-73.98226950000002},{"name":"MANHATTAN VALLEY","address":"165 West 105th Street, New York, NY","day":"Wednesdays","start":1900,"end":2000,"type":"Beginners meeting","lat":40.79979790000001,"lng":-73.96564289999999},{"name":"METROPOLIS MEN‘S MEETING","address":"207 West 96th Street, New York, NY","day":"Sundays","start":1745,"end":1900,"type":"Closed Discussion meeting","lat":40.7944661,"lng":-73.9706389},{"name":"MID","address":"207 West 96th Street, New York, NY","day":"Thursdays","start":1300,"end":1415,"type":"Closed Discussion meeting","special":"Women","lat":40.7944661,"lng":-73.9706389},{"name":"MORNINGSIDE","address":"2504 Broadway, New York, NY","day":"Saturdays","start":2115,"end":2215,"type":"Open Discussion meeting","lat":40.7926923,"lng":-73.9726924},{"name":"MORNINGSIDE HEIGHTS BEGINNERS","address":"405 West 114th Street, New York, NY","day":"Fridays","start":1830,"end":1930,"type":"Beginners meeting","lat":40.805083,"lng":-73.960405},{"name":"NEVER TOO LATE","address":"368 West End Ave, New York, NY","day":"Tuesdays","start":1930,"end":2030,"type":"Closed Discussion meeting","lat":40.7833129,"lng":-73.9819042},{"name":"NIGHT LIGHT","address":"225 West 99th Street, New York, NY","day":"Mondays","start":1830,"end":1930,"type":"Step meeting","lat":40.79635340000001,"lng":-73.9690816},{"name":"NIGHT LIGHT BEGINNERS","address":"251 West 100th Street, New York, NY","day":"Thursdays","start":1800,"end":1900,"type":"Beginners meeting","lat":40.7978378,"lng":-73.9708521},{"name":"NINETY","address":"207 West 96th Street, New York, NY","day":"Fridays","start":2300,"end":0,"type":"Closed Discussion meeting","special":"Promises","lat":40.7944661,"lng":-73.9706389},{"name":"OXFORD 1","address":"26 West 84th Street, New York, NY","day":"Thursdays","start":1930,"end":2030,"type":"Big Book meeting","special":"Interpreted for the Deaf","lat":40.7843147,"lng":-73.97173169999999},{"name":"PROMISES PROMISES","address":"5 West 63rd Street, New York, NY","day":"Saturdays","start":1830,"end":1930,"type":"Closed Discussion meeting","lat":40.7709272,"lng":-73.98057589999999},{"name":"RENEWAL WEST","address":"552 West End Avenue, New York, NY","day":"Sundays","start":1900,"end":2000,"type":"Beginners meeting","lat":40.7892789,"lng":-73.97716009999999},{"name":"ROUTES","address":"164 West 74 Street, New York, NY","day":"Tuesdays","start":1900,"end":2000,"type":"Beginners meeting","lat":40.7795103,"lng":-73.98025559999999},{"name":"RUDE AWAKENING","address":"340 West 85th Street, New York, NY","day":"Wednesdays","start":2030,"end":2130,"type":"Closed Discussion meeting","special":"Living Sober","lat":40.7886377,"lng":-73.97993699999999},{"name":"SMITHEREENS","address":"368 West End Avenue, New York, NY","day":"Wednesdays","start":2015,"end":2115,"type":"Step meeting","lat":40.7833129,"lng":-73.9819042},{"name":"SOBER STEPPING","address":"152 West 71st Street, New York, NY","day":"Saturdays","start":1830,"end":1930,"type":"Step meeting","special":"Promises","lat":40.77711,"lng":-73.981217},{"name":"SUNDAY MEN‘S TOPIC","address":"5 West 63rd Street, New York, NY","day":"Sundays","start":1030,"end":1130,"type":"Closed Discussion meeting","special":"Men","lat":40.7709272,"lng":-73.98057589999999},{"name":"SUNDAY WEST","address":"131 West 72nd Street, New York, NY","day":"Sundays","start":2400,"end":1300,"type":"Closed Discussion meeting","lat":40.7781299,"lng":-73.97975799999999},{"name":"TURN IT OVER","address":"207 West 96th Street, New York, NY","day":"Fridays","start":1630,"end":1730,"type":"Step meeting","lat":40.7944661,"lng":-73.9706389},{"name":"WAY OF LIFE","address":"152 West 71st Street, New York, NY","day":"Saturdays","start":1115,"end":2415,"type":"Closed Discussion meeting","special":"As Bill Sees It","lat":40.77711,"lng":-73.981217},{"name":"WE AGNOSTICS OF NYC","address":"30 West 68th Street, New York, NY","day":"Thursdays","start":1815,"end":1915,"type":"Closed Discussion meeting","special":"Agnostic","lat":40.7739911,"lng":-73.97916920000002},{"name":"WE ARE NOT DOCTORS (WESTSIDE)","address":"207 West 96th Street, New York, NY","day":"Wednesdays","start":1645,"end":1745,"type":"Open Discussion meeting","special":"Medication","lat":40.7944661,"lng":-73.9706389},{"name":"WEST END","address":"263 West 86th Street, New York, NY","day":"Tuesdays","start":1900,"end":2000,"type":"Big Book meeting","lat":40.7889383,"lng":-73.97729029999999},{"name":"WESTSIDE 11TH STEP MEDITATION WORKSHOP","address":"306 West 102nd Street, New York, NY","day":"Wednesdays","start":1900,"end":2000,"type":"Closed Discussion meeting","lat":40.7991395,"lng":-73.9711355},{"name":"WESTSIDE STEP","address":"152 West 71st Street, New York, NY","day":"Fridays","start":1900,"end":2000,"type":"Step meeting","lat":40.77711,"lng":-73.981217},{"name":"WESTSIDE YOUNG PEOPLE","address":"26 West 84th Street, New York, NY","day":"Saturdays","start":1900,"end":2000,"type":"Beginners meeting","special":"Young People","lat":40.7843147,"lng":-73.97173169999999},{"name":"WITHOUT A PRAYER","address":"595 Columbus Avenue, New York, NY","day":"Saturdays","start":1700,"end":1800,"type":"Open Discussion meeting","special":"Agnostic","lat":40.7880097,"lng":-73.9707093},{"name":"WOMEN LIVING SOBER","address":"306 West 102nd Street, New York, NY","day":"Saturdays","start":900,"end":1000,"type":"Closed Discussion meeting","special":"Women","lat":40.7991395,"lng":-73.9711355},{"name":"WOMEN WEST AA","address":"213 West 82nd Street, New York, NY","day":"Fridays","start":1900,"end":2000,"type":"Closed Discussion meeting","special":"Women","lat":40.7856431,"lng":-73.977637},{"name":"WOMEN‘S BEGINNING LITERATURE","address":"152 West 71st Street, New York, NY","day":"Wednesdays","start":2430,"end":1330,"type":"Beginners meeting","special":"Women","lat":40.77711,"lng":-73.981217},{"name":"WOMEN‘S ELEVENTH STEP MEETING","address":"152 west 71st street, New York, NY","day":"Mondays","start":2400,"end":1300,"type":"Open Discussion meeting","special":"Women","lat":40.77711,"lng":-73.981217},{"name":"WOMEN‘S TELL IT LIKE IT IS","address":"152 West 71st Street, New York, NY","day":"Mondays","start":2400,"end":1315,"type":"Closed Discussion meeting","special":"Women","lat":40.77711,"lng":-73.981217},{"name":"WOMEN‘S WESTSIDE TOPIC","address":"160 Central Park West, New York, NY","day":"Tuesdays","start":1830,"end":1930,"type":"Closed Discussion meeting","special":"Women","lat":40.7787393,"lng":-73.97455099999999},{"name":"WRITING SOBER","address":"207 West 96th Street, New York, NY","day":"Wednesdays","start":1800,"end":1900,"type":"Closed Discussion meeting","special":"Special Purpose Groups","lat":40.7944661,"lng":-73.9706389},{"name":"A BAFFLED LOT","address":"351 East 74th Street, New York, NY","day":"Saturdays","start":730,"end":830,"type":"Open Discussion meeting","lat":40.7695575,"lng":-73.9555091},{"name":"A.A. TRADITIONS AND HISTORY","address":"48 East 80th Street, New York, NY","day":"Tuesdays","start":1900,"end":2000,"type":"Tradition meeting","lat":40.7766859,"lng":-73.9613107},{"name":"ACTIVE","address":"184 East 76th Street, New York, NY","day":"Wednesdays","start":1800,"end":1900,"type":"Step meeting","lat":40.772485,"lng":-73.9595142},{"name":"AFTERNOON AWAKENING","address":"351 East 74th Street, New York, NY","day":"Fridays","start":1430,"end":1530,"type":"Step meeting","special":"Living Sober","lat":40.7695575,"lng":-73.9555091},{"name":"ATLANTIC ELEVENTH STEP MEDITATION","address":"1393 York Avenue, New York, NY","day":"Mondays","start":1915,"end":2015,"type":"Step meeting","lat":40.7685172,"lng":-73.95299829999999},{"name":"ATLANTIC GROUP 1","address":"520 Park Avenue, New York, NY","day":"Tuesdays","start":1900,"end":2000,"type":"Open meeting","lat":40.7639511,"lng":-73.9697422},{"name":"ATLANTIC GROUP 1","address":"337 East 74th St, New York, NY","day":"Thursdays","start":1900,"end":2000,"type":"Beginners meeting","lat":40.7695505,"lng":-73.9559804},{"name":"ATLANTIC GROUP 1","address":"1157 Lexington Avenue, New York, NY","day":"Saturdays","start":1800,"end":1900,"type":"Open meeting","lat":40.7753286,"lng":-73.95819519999999},{"name":"BREAKING THROUGH","address":"420 East 76th Street, New York, NY","day":"Fridays","start":1830,"end":1930,"type":"Beginners meeting","lat":40.7697328,"lng":-73.9530611},{"name":"CAME TO BELIEVE","address":"230 East 90th Street, New York, NY","day":"Sundays","start":1530,"end":1630,"type":"Beginners meeting","lat":40.7806471,"lng":-73.9509674},{"name":"CARNEGIE HILL","address":"65 East 89th Street, New York, NY","day":"Tuesdays","start":1815,"end":1915,"type":"Closed Discussion meeting","lat":40.7827448,"lng":-73.9567008},{"name":"CENTRAL","address":"865 Madison Avenue, New York, NY","day":"Sundays","start":1915,"end":2015,"type":"Beginners meeting","special":"Meditation","lat":40.7711264,"lng":-73.96535639999999},{"name":"CHAPTER FIVE","address":"1296 Lexington Avenue, New York, NY","day":"Thursdays","start":2000,"end":2115,"type":"Big Book meeting","special":"Women","lat":40.780699,"lng":-73.954995},{"name":"ELEVENTH STEP AT JAN HUS","address":"351 East 74th Street, New York, NY","day":"Sundays","start":900,"end":1000,"type":"Step meeting","lat":40.7695575,"lng":-73.9555091},{"name":"FEARLESS","address":"1157 Lexington Avenue, New York, NY","day":"Fridays","start":1930,"end":2030,"type":"Closed Discussion meeting","lat":40.7753286,"lng":-73.95819519999999},{"name":"FRIDAY CENTRAL","address":"351 East 74th Street, New York, NY","day":"Fridays","start":1830,"end":1930,"type":"Closed Discussion meeting","lat":40.7695575,"lng":-73.9555091},{"name":"FRIDAY NIGHT GAY MEN & WOMEN","address":"351 East 74th Street, New York, NY","day":"Fridays","start":2000,"end":2100,"type":"Step meeting","special":"Gay, Lesbian and Bisexual","lat":40.7695575,"lng":-73.9555091},{"name":"FRIDAY NIGHT MEN‘S STEP","address":"65 East 89th Street, New York, NY","day":"Fridays","start":1815,"end":1915,"type":"Step meeting","special":"Men","lat":40.7827448,"lng":-73.9567008},{"name":"HUMANISTS TOO","address":"65 East 89th Street, New York, NY","day":"Mondays","start":1815,"end":1915,"lat":40.7827448,"lng":-73.9567008},{"name":"I‘M ALL IN","address":"351 East 74th Street, New York, NY","day":"Mondays","start":2430,"end":1330,"type":"Beginners meeting","lat":40.7695575,"lng":-73.9555091},{"name":"INTO ACTION MANHATTAN","address":"135 East 96th Street, New York, NY","day":"Wednesdays","start":1830,"end":1930,"type":"Step meeting","special":"Big Book Workshop","lat":40.7863738,"lng":-73.95142310000001},{"name":"KITCHEN TABLE MEETING","address":"351 East 74th Street, New York, NY","day":"Saturdays","start":1100,"end":2400,"type":"Closed Discussion meeting","lat":40.7695575,"lng":-73.9555091},{"name":"LENOX HILL","address":"2 East 90th Street, New York, NY","day":"Mondays","start":2015,"end":2100,"type":"Closed Discussion meeting","lat":40.7838507,"lng":-73.95841779999999},{"name":"LEX 80 STEP","address":"1157 Lexington Avenue, New York, NY","day":"Wednesdays","start":1830,"end":1930,"type":"Step meeting","special":"Twelve Steps","lat":40.7753286,"lng":-73.95819519999999},{"name":"LIVE AND LET LIVE","address":"420 East 76th Street, New York, NY","day":"Tuesdays","start":2030,"end":2130,"type":"Closed Discussion meeting","special":"Gay, Lesbian and Bisexual","lat":40.7697328,"lng":-73.9530611},{"name":"MADISON 73","address":"351 East 74th Street, New York, NY","day":"Saturdays","start":1900,"end":2000,"type":"Step meeting","lat":40.7695575,"lng":-73.9555091},{"name":"MEDITATION (EXPECT MIRACLES)","address":"351 East 74th Street, New York, NY","day":"Wednesdays","start":2000,"end":2100,"type":"Open Discussion meeting","lat":40.7695575,"lng":-73.9555091},{"name":"MEN‘S NYC BIG BOOK STEP STUDY","address":"1285 Madison Avenue, New York, NY","day":"Wednesdays","start":1900,"end":2030,"type":"Big Book meeting","lat":40.7843024,"lng":-73.9560321},{"name":"METROPOLITAN","address":"48 East 84th Street, New York, NY","day":"Meeting Type B = Beginners meeting","start":1830,"end":1930,"special":"First Step Workshop","lat":40.7790739,"lng":-73.95927689999999},{"name":"MONDAY EAST TOPIC","address":"408 East 82nd Street, New York, NY","day":"Mondays","start":1900,"end":2000,"type":"Closed Discussion meeting","lat":40.7736934,"lng":-73.9503282},{"name":"MONDAY WOMEN","address":"351 East 74th Street, New York, NY","day":"Mondays","start":1915,"end":2015,"type":"Closed Discussion meeting","special":"Women","lat":40.7695575,"lng":-73.9555091},{"name":"MORNING REFLECTIONS","address":"351 East 74th Street, New York, NY","day":"Tuesdays","start":930,"end":1030,"type":"Open Discussion meeting","special":"Daily Reflections","lat":40.7695575,"lng":-73.9555091},{"name":"NEW CHOICES","address":"125 East 85th Street, New York, NY","day":"Wednesdays","start":1830,"end":1930,"type":"Step meeting","lat":40.7791559,"lng":-73.9563083},{"name":"OPEN BOOK","address":"351 East 74th Street, New York, NY","day":"Mondays","start":1915,"end":2015,"type":"Big Book meeting","lat":40.7695575,"lng":-73.9555091},{"name":"OUR PRIMARY PURPOSE","address":"351 East 74th Street, New York, NY","day":"Saturdays","start":930,"end":1030,"type":"Step meeting","special":"Women","lat":40.7695575,"lng":-73.9555091},{"name":"PARK BENCH 1","address":"865 Madison Avenue, New York, NY","day":"Thursdays","start":2430,"end":1330,"type":"Closed Discussion meeting","lat":40.7711264,"lng":-73.96535639999999},{"name":"PARK MADISON","address":"62 East 92nd Street, New York, NY","day":"Fridays","start":2000,"end":2100,"type":"Step meeting","lat":40.7839599,"lng":-73.9552614},{"name":"PERSEVERANCE","address":"351 East 74th Street, New York, NY","day":"Saturdays","start":1100,"end":2400,"type":"Open Discussion meeting","lat":40.7695575,"lng":-73.9555091},{"name":"RECOVERY ROOM","address":"420 East 87th Street, New York, NY","day":"Wednesdays","start":1900,"end":2000,"type":"Beginners meeting","lat":40.7769469,"lng":-73.9480191},{"name":"RENEWAL EAST","address":"593 Park Avenue, New York, NY","day":"Wednesdays","start":1830,"end":1930,"type":"Closed Discussion meeting","lat":40.7656978,"lng":-73.9672859},{"name":"RENEWAL NORTH","address":"65 East 89th Street, New York, NY","day":"Thursdays","start":1830,"end":1930,"type":"Open Discussion meeting","lat":40.7827448,"lng":-73.9567008},{"name":"RHINELANDER","address":"865 Madison Avenue, New York, NY","day":"Mondays","start":1900,"end":2000,"type":"Beginners meeting","lat":40.7711264,"lng":-73.96535639999999},{"name":"ROOSEVELT ISLAND SERENITY","address":"Church of the Good Shepard, New York, NY","day":"Saturdays","start":1830,"end":1930,"type":"Closed Discussion meeting","lat":40.8684851,"lng":-73.92043749999999},{"name":"SEVENTY","address":"413 East 79th Street, New York, NY","day":"Wednesdays","start":2200,"end":2300,"type":"Closed Discussion meeting","special":"Sponsorship Workshop","lat":40.7722008,"lng":-73.9517118},{"name":"SOBER WOMEN","address":"351 East 74th Street, New York, NY","day":"Saturdays","start":915,"end":1015,"type":"Closed Discussion meeting","special":"Women","lat":40.7695575,"lng":-73.9555091},{"name":"STEP BY STEP","address":"310 East 67th Street, New York, NY","day":"Saturdays","start":1000,"end":1100,"type":"Step meeting","lat":40.7650502,"lng":-73.960054},{"name":"SUNDAY ON 70TH","address":"331 E 70th St, New York, NY","day":"Sundays","start":1000,"end":1100,"type":"Beginners meeting","lat":40.7670844,"lng":-73.9577554},{"name":"SUTTON","address":"411 East 68th Street, New York, NY","day":"Saturdays","start":1830,"end":1930,"type":"Open Discussion meeting","lat":40.7652978,"lng":-73.9570329},{"name":"THREE TWELVES","address":"2 East 90th Street, New York, NY","day":"Thursdays","start":2400,"end":1300,"type":"Closed Discussion meeting","lat":40.7838507,"lng":-73.95841779999999},{"name":"TRINITY","address":"341 East 87th Street, New York, NY","day":"Tuesdays","start":2030,"end":2130,"type":"Closed Discussion meeting","lat":40.778083,"lng":-73.9496753},{"name":"WE HUMANISTS","address":"351 East 74th Street, New York, NY","day":"Wednesdays","start":1815,"end":1915,"type":"Closed Discussion meeting","special":"Agnostic","lat":40.7695575,"lng":-73.9555091},{"name":"WEDNESDAY EAST ON THURSDAY","address":"351 East 74th Street, New York, NY","day":"Thursdays","start":2000,"end":2100,"type":"Closed Discussion meeting","lat":40.7695575,"lng":-73.9555091},{"name":"YORKVILLE","address":"351 East 74th Street, New York, NY","day":"Thursdays","start":2000,"end":2100,"type":"Closed Discussion meeting","lat":40.7695575,"lng":-73.9555091},{"name":"A CHANCE TO LIVE AGAIN","address":"109 West 129th Street, New York, NY","day":"Mondays","start":1900,"end":2000,"type":"Beginners meeting","lat":40.8107528,"lng":-73.9441252},{"name":"AA IT WORKS  II","address":"240 West 145th Street, New York, NY","day":"Tuesdays","start":1000,"end":1100,"type":"Open Discussion meeting","lat":40.8220986,"lng":-73.9408904},{"name":"ATTITUDE ADJUSTMENT","address":"469 West 142nd Street, New York, NY","day":"Saturdays","start":730,"end":830,"type":"Open Discussion meeting","lat":40.823305,"lng":-73.948402},{"name":"CONVENT","address":"204 West 134th Street, New York, NY","day":"Saturdays","start":1130,"end":1300,"type":"Open Discussion meeting","lat":40.8146357,"lng":-73.9450779},{"name":"FELLOWSHIP AT NOON","address":"2044 Adam Clayton Powell Blvd, New York, NY","day":"Fridays","start":2415,"end":1315,"type":"Open Discussion meeting","lat":40.807284,"lng":-73.94995949999999},{"name":"GRUPO TRASMITELO","address":"469 West 142nd Street, New York, NY","day":"Thursdays","start":2000,"end":2100,"type":"Beginners meeting","lat":40.823305,"lng":-73.948402},{"name":"HARLEM HUMANISTS","address":"521 W 126th St, New York, NY","day":"Mondays","start":2400,"end":1300,"type":"Open meeting","special":"Agnostic","lat":40.8149739,"lng":-73.9560186},{"name":"K.I.S.S.","address":"109 West 129th Street, New York, NY","day":"Sundays","start":1900,"end":2000,"type":"Beginners meeting","lat":40.8107528,"lng":-73.9441252},{"name":"LEARNING TO LIVE SOBER","address":"469 West 142nd Street, New York, NY","day":"Thursdays","start":1800,"end":1900,"type":"Big Book meeting","lat":40.823305,"lng":-73.948402},{"name":"LIVING CLEAN AND SOBER ON 121ST STREET","address":"2044 Seventh Avenue, New York, NY","day":"Sundays","start":1800,"end":1930,"type":"Beginners meeting","lat":40.80727220000001,"lng":-73.949725},{"name":"MEDITATION COMES TO HARLEM","address":"127 West 127th Street, New York, NY","day":"Mondays","start":1630,"end":1730,"type":"Closed Discussion meeting","lat":40.8099512,"lng":-73.94574899999999},{"name":"MID","address":"310 West 139th Street, New York, NY","day":"Fridays","start":2000,"end":2100,"type":"Open meeting","lat":40.8191319,"lng":-73.9454349},{"name":"MONDAY NIGHT CHALLENGE","address":"409 West 141st Street, New York, NY","day":"Mondays","start":1900,"end":2000,"type":"Beginners meeting","lat":40.8215874,"lng":-73.9463486},{"name":"PRIMARY PURPOSE","address":"91 Claremont Avenue, New York, NY","day":"Sundays","start":1500,"end":1600,"type":"Open Discussion meeting","lat":40.8118487,"lng":-73.9631608},{"name":"PROMISES TWO FOR ONE","address":"1727 Amsterdam Avenue, New York, NY","day":"Sundays","start":1100,"end":2400,"type":"Closed Discussion meeting","lat":40.8254215,"lng":-73.946911},{"name":"REALITY CHECK","address":"469 West 142nd Street, New York, NY","day":"Saturdays","start":1700,"end":1800,"type":"Open Discussion meeting","special":"Men","lat":40.823305,"lng":-73.948402},{"name":"RIVERSIDE","address":"91 Claremont Avenue, New York, NY","day":"Mondays","start":1900,"end":2000,"type":"Closed Discussion meeting","lat":40.8118487,"lng":-73.9631608},{"name":"RIVERTON","address":"219 West 132nd Street, New York, NY","day":"Tuesdays","start":2000,"end":2100,"lat":40.8139208,"lng":-73.9458684},{"name":"SALEM","address":"211 West 129th Street, New York, NY","day":"Wednesdays","start":1930,"end":2030,"type":"Closed Discussion meeting","lat":40.812,"lng":-73.947053},{"name":"SOBER ADULT MEN","address":"425 West 144th Street, New York, NY","day":"Wednesdays","start":1900,"end":2000,"type":"Closed Discussion meeting","special":"Men","lat":40.8239567,"lng":-73.9462233},{"name":"ST. NICHOLAS","address":"204 West 134th Street, New York, NY","day":"Thursdays","start":1900,"end":2000,"type":"Beginners meeting","lat":40.8146357,"lng":-73.9450779},{"name":"STEPS 3 AND 11","address":"506 Lenox Avenue, New York, NY","day":"Sundays","start":1400,"end":1500,"type":"Beginners meeting","lat":40.8141351,"lng":-73.9397616},{"name":"SUGAR HILL","address":"1727 Amsterdam Avenue, New York, NY","day":"Fridays","start":1730,"end":1830,"type":"Beginners meeting","lat":40.8254215,"lng":-73.946911},{"name":"TUESDAY BIG BOOK STUDY","address":"1854 Amsterdam Avenue, New York, NY","day":"Tuesdays","start":1800,"end":1900,"type":"Big Book meeting","lat":40.8296357,"lng":-73.9447467},{"name":"UPTOWN BIG BOOK WORKSHOP","address":"469 West 142nd Street, New York, NY","day":"Saturdays","start":930,"end":1100,"type":"Big Book meeting","special":"Big Book Workshop","lat":40.823305,"lng":-73.948402},{"name":"YOU MAY CARE AFTER","address":"58-66 West 135th Street, New York, NY","day":"Tuesdays","start":1830,"end":1930,"type":"Step meeting","lat":40.81359399999999,"lng":-73.94039099999999},{"name":"125","address":"35 East 125 Street, New York, NY","day":"Saturdays","start":1615,"end":1730,"type":"Beginners meeting","lat":40.806204,"lng":-73.9410197},{"name":"EAST HARLEM","address":"223 East 117th Street, New York, NY","day":"Tuesdays","start":1830,"end":1930,"type":"Beginners meeting","special":"Living Sober","lat":40.7982694,"lng":-73.9382394},{"name":"GRUPO NUEVA VIDA","address":"2126 2nd Avenue, New York, NY","day":"Saturdays","start":2000,"end":2100,"type":"Open Discussion meeting","lat":40.7926781,"lng":-73.9406285},{"name":"HARLEM 1 PM RECOVERY","address":"22 East 119th Street, New York, NY","day":"Mondays","start":1300,"end":1400,"type":"Beginners meeting","lat":40.80202999999999,"lng":-73.9442569},{"name":"A NEW WAY OF LIVING","address":"701 West 168th Street, New York, NY","day":"Wednesdays","start":2400,"end":1300,"type":"Closed Discussion meeting","special":"Living Sober","lat":40.8428049,"lng":-73.94260489999999},{"name":"BRIDGE TO SOBRIETY 1","address":"715 West 179th Street, New York, NY","day":"Fridays","start":1000,"end":1100,"type":"Open Discussion meeting","special":"Living Sober","lat":40.849394,"lng":-73.93841119999999},{"name":"BRIDGE TO SOBRIETY 1","address":"715 West 179th Street, New York, NY","day":"Sundays","start":1000,"end":1100,"type":"Step meeting","lat":40.849394,"lng":-73.93841119999999},{"name":"DYCKMAN","address":"431 West 204th Street, New York, NY","day":"Wednesdays","start":1900,"end":2000,"type":"Step meeting","lat":40.8621364,"lng":-73.9189224},{"name":"FOUND","address":"550 West 155th Street, New York, NY","day":"Saturdays","start":2430,"end":1400,"type":"Closed Discussion meeting","special":"Gay Men","lat":40.8321259,"lng":-73.9452508},{"name":"GRUPO DESPERTAR","address":"557 West 156th Street, New York, NY","day":"Fridays","start":2000,"end":2200,"type":"Open Discussion meeting","lat":40.833379,"lng":-73.94459800000001},{"name":"GRUPO LA FLAMA PANAMERICANA","address":"35 Thayer Street, New York, NY","day":"Saturdays","start":2000,"end":2200,"type":"Open meeting","lat":40.862594,"lng":-73.926186},{"name":"GRUPO LIBERTAD","address":"715 West 179th Street, New York, NY","day":"Tuesdays","start":2130,"end":2230,"type":"Closed Discussion meeting","lat":40.849394,"lng":-73.93841119999999},{"name":"GRUPO RECUPERACION","address":"502 West165th Street, New York, NY","day":"Thursdays","start":2000,"end":2100,"type":"Open meeting","lat":40.8380556,"lng":-73.93891789999999},{"name":"GRUPO UN NUEVO AMANECER","address":"91 Arden Street, New York, NY","day":"Fridays","start":2000,"end":2100,"type":"Open Discussion meeting","lat":40.8638625,"lng":-73.9280718},{"name":"HAPPY DESTINY","address":"20 Cumming Street, New York, NY","day":"Wednesdays","start":1930,"end":2030,"type":"Beginners meeting","special":"Gay, Lesbian and Bisexual","lat":40.8666437,"lng":-73.9268712},{"name":"INWOOD FORT TRYON","address":"84 Vermilyea Avenue, New York, NY","day":"Tuesdays","start":2430,"end":1330,"type":"Closed Discussion meeting","lat":40.8660417,"lng":-73.9232711},{"name":"ISHAM PARK","address":"620 Isham Street, New York, NY","day":"Mondays","start":2000,"end":2100,"type":"Closed Discussion meeting","lat":40.8692105,"lng":-73.9207583},{"name":"PROGRESS NOT PERFECTION","address":"2005 Amsterdam Avenue, New York, NY","day":"Fridays","start":1930,"end":2030,"type":"Open Discussion meeting","lat":40.8342672,"lng":-73.94078800000001},{"name":"THE MEN UPSTAIRS","address":"178 Bennett Avenue, New York, NY","day":"Mondays","start":2000,"end":2100,"type":"Closed Discussion meeting","special":"Men","lat":40.8560587,"lng":-73.93446569999999},{"name":"THE MISSING LINK","address":"178 Bennett Avenue, New York, NY","day":"Fridays","start":1900,"end":2000,"type":"Big Book meeting","lat":40.8560587,"lng":-73.93446569999999},{"name":"UPPER MANHATTAN","address":"91 Arden Street, New York, NY","day":"Thursdays","start":1930,"end":2030,"type":"Open Discussion meeting","lat":40.8638625,"lng":-73.9280718},{"name":"UPTOWN SATURDAY NIGHT","address":"20 Cummings Street, New York, NY","day":"Saturdays","start":1900,"end":2000,"type":"Closed Discussion meeting","lat":40.8664722,"lng":-73.926452},{"name":"WASHINGTON HEIGHTS 1","address":"715 West 179th Street, New York, NY","day":"Tuesdays","start":1930,"end":2030,"type":"Open meeting","lat":40.849394,"lng":-73.93841119999999},{"name":"WASHINGTON HEIGHTS 1","address":"189th Street, New York, NY","day":"Thursdays","start":1930,"end":2030,"type":"Closed Discussion meeting","lat":40.8543168,"lng":-73.9300933},{"name":"WHAT WE ARE LIKE NOW","address":"178 Bennett Avenue, New York, NY","day":"Sundays","start":1800,"end":1900,"type":"Closed Discussion meeting","lat":40.8560587,"lng":-73.93446569999999},{"name":"WOMEN‘S NITE","address":"178 Bennett Avenue, New York, NY","day":"Mondays","start":1930,"end":2030,"type":"Big Book meeting","lat":40.8560587,"lng":-73.93446569999999}]